[
  {
    "xid": "Q1590864",
    "name": "Haus des Berliner Verlages",
    "dist": 112.7095374,
    "rate": 7,
    "wikidata": "Q1590864",
    "kinds": "historic_architecture,architecture,interesting_places,other_buildings_and_structures",
    "point": {
      "lon": 13.4121,
      "lat": 52.5247
    }
  },
  {
    "xid": "Q2522680",
    "name": "Victoria-Theater",
    "dist": 138.00165464,
    "rate": 3,
    "wikidata": "Q2522680",
    "kinds": "architecture,historic_architecture,theatres_and_entertainments,cultural,interesting_places,destroyed_objects,other_theatres",
    "point": {
      "lon": 13.4085,
      "lat": 52.5243
    }
  },
  {
    "xid": "N256754256",
    "name": "Kino Babylon",
    "dist": 180.83912137,
    "rate": 7,
    "osm": "node/256754256",
    "wikidata": "Q1742238",
    "kinds": "cultural,cinemas,theatres_and_entertainments,interesting_places",
    "point": {
      "lon": 13.411436,
      "lat": 52.525898
    }
  },
  {
    "xid": "N1433855703",
    "name": "1. Berliner DDR Motorrad-Museum",
    "dist": 245.29300031,
    "rate": 3,
    "osm": "node/1433855703",
    "wikidata": "Q161768",
    "kinds": "museums,cultural,interesting_places,other_museums",
    "point": {
      "lon": 13.407741,
      "lat": 52.522968
    }
  },
  {
    "xid": "W23723125",
    "name": "park inn by radisson berlin alexanderplatz",
    "dist": 247.21413602,
    "rate": 3,
    "osm": "way/23723125",
    "wikidata": "Q701571",
    "kinds": "skyscrapers,architecture,accomodations,interesting_places,other_hotels",
    "point": {
      "lon": 13.413012,
      "lat": 52.522743
    }
  }
]
